FID,OBJECTID_1,OBJECTID,id,name,citycode,lon,lat,name_1,province,city,management,year,volume,green,Shape_Leng,Shape_Area
0,306691,481100.000000000000000,B01DE006LL,锦都花园(农科路),150800,107.386000000000000,40.765000000000001,北国华府,内蒙古自治区,巴彦淖尔市,暂无数据,2015,2.500000000000000,32%(一般),0.006760593214750,0.000000000000000
1,306811,481225.000000000000000,B01DE0MW3V,北欧印象(水源路),150800,107.396000000000000,40.741999999999997,北欧印象(水源路),内蒙古自治区,巴彦淖尔市,暂无数据,2010,1.500000000000000,25%(一般),0.012280185956700,0.000000000000000
2,306867,481284.000000000000000,B01DE0MZK7,峻峰华庭,150800,107.418000000000010,40.765999999999998,峻峰华庭,内蒙古自治区,巴彦淖尔市,1.25元/㎡/月,2010,3.250000000000000,32%(一般),0.020264560237200,0.000000000000000
3,312180,487200.000000000000000,B0FFFVJOYB,鸿臣欧洲假日A区,150800,107.407000000000000,40.774999999999999,鸿臣欧洲假日,内蒙古自治区,巴彦淖尔市,18元/㎡/月,2015,2.300000000000000,30%(一般),0.017207124748700,0.000000000000000
4,313095,488239.000000000000000,B0FFGDFQER,赛亨花园,150800,107.420000000000000,40.764000000000003,赛亨花园(光辉路),内蒙古自治区,巴彦淖尔市,5.5元/㎡/月,2003,12.000000000000000,25%(一般),0.011359588358100,0.000000000000000
5,313097,488242.000000000000000,B0FFGDFTWP,今日花园(永安街),150800,107.419000000000000,40.761000000000003,今日花园(永安街),内蒙古自治区,巴彦淖尔市,暂无数据,2009,12.000000000000000,15%(低),0.011439272277600,0.000000000000000